[
    {
        "ID": 1,
        "display_name": "St. Dominic College of Asia",
        "latitude": "14.4587351",
        "longitude": "120.9602942",
        "types": "{university,school,point_of_interest,establishment}"
    },
    {
        "ID": 2,
        "display_name": "St. Dominic Medical Center",
        "latitude": "14.4592455000000",
        "longitude": "120.9607356",
        "types": "{hospital,health,point_of_interest,establishment}"
    },
    {
        "ID": 3,
        "display_name": "SSS Bacoor",
        "latitude": "14.4599515",
        "longitude": "120.9588487",
        "types": "{point_of_interest,establishment}"
    },
    {
        "ID": 4,
        "display_name": "Hotel Sogo - Molino",
        "latitude": "14.458474",
        "longitude": "120.959611499999",
        "types": "{hotel,lodging,point_of_interest,establishment}"
    },
    {
        "ID": 5,
        "display_name": "UnionBank",
        "latitude": "14.4598474",
        "longitude": "120.9604056",
        "types": "{bank,atm,finance,point_of_interest,establishment}"
    },
    {
        "ID": 6,
        "display_name": "McDonald's New Molino",
        "latitude": "14.4589996",
        "longitude": "120.9595377",
        "types": "{fast_food_restaurant,hamburger_restaurant,meal_takeaway,american_restaurant,restaurant,food,point_of_interest,establishment}"
    },
    {
        "ID": 7,
        "display_name": "Talaba Elementary School",
        "latitude": "14.4612186999999",
        "longitude": "120.9602264",
        "types": "{primary_school,school,point_of_interest,establishment}"
    },
    {
        "ID": 8,
        "display_name": "CBC Asia Technozone",
        "latitude": "14.4588783",
        "longitude": "120.9588802",
        "types": "{point_of_interest,establishment}"
    },
    {
        "ID": 9,
        "display_name": "Uno Fuel",
        "latitude": "14.4606967",
        "longitude": "120.9613666",
        "types": "{gas_station,point_of_interest,establishment}"
    },
    {
        "ID": 10,
        "display_name": "Kenny Rogers Roasters",
        "latitude": "14.4601025",
        "longitude": "120.9594012",
        "types": "{restaurant,food,point_of_interest,establishment}"
    },
    {
        "ID": 11,
        "display_name": "Shakey's",
        "latitude": "14.4599311",
        "longitude": "120.9594341",
        "types": "{pizza_restaurant,american_restaurant,restaurant,food,point_of_interest,establishment}"
    },
    {
        "ID": 12,
        "display_name": "Bacoor City Police Station",
        "latitude": "14.4607527",
        "longitude": "120.9598758",
        "types": "{police,point_of_interest,establishment}"
    },
    {
        "ID": 13,
        "display_name": "Aliw Inn",
        "latitude": "14.4592636",
        "longitude": "120.9589664",
        "types": "{motel,lodging,point_of_interest,establishment}"
    },
    {
        "ID": 14,
        "display_name": "Romantic Baboy",
        "latitude": "14.4603825",
        "longitude": "120.9593995",
        "types": "{korean_restaurant,restaurant,food,point_of_interest,establishment}"
    },
    {
        "ID": 15,
        "display_name": "EastWest Unibank",
        "latitude": "14.4591335",
        "longitude": "120.9592331",
        "types": "{bank,finance,point_of_interest,establishment}"
    },
    {
        "ID": 16,
        "display_name": "Talaba IV Barangay Hall",
        "latitude": "14.4615939",
        "longitude": "120.9598012",
        "types": "{point_of_interest,establishment}"
    },
    {
        "ID": 17,
        "display_name": "PUREHEALTH DIAGNOSTIC CENTER INC- TALABA BRANCH",
        "latitude": "14.4603862",
        "longitude": "120.9603497",
        "types": "{health,point_of_interest,establishment}"
    },
    {
        "ID": 18,
        "display_name": "Honda Prestige Traders Inc.",
        "latitude": "14.460219",
        "longitude": "120.960158",
        "types": "{store,point_of_interest,establishment}"
    },
    {
        "ID": 19,
        "display_name": "China Bank Savings",
        "latitude": "14.4603752999999",
        "longitude": "120.9595259",
        "types": "{bank,finance,point_of_interest,establishment}"
    },
    {
        "ID": 20,
        "display_name": "Ren A Mark Japan Surplus",
        "latitude": "14.4595633999999",
        "longitude": "120.9595566",
        "types": "{store,point_of_interest,establishment}"
    },
    {
        "ID": 21,
        "display_name": "Jeamco Royal Hotel Inc., ( NOVO HOTEL )",
        "latitude": "7.22216759999999",
        "longitude": "124.251807799999",
        "types": "{hotel,lodging,point_of_interest,establishment}"
    },
    {
        "ID": 22,
        "display_name": "Mindanao Star Bus",
        "latitude": "7.2225994",
        "longitude": "124.251637099999",
        "types": "{point_of_interest,establishment}"
    },
    {
        "ID": 23,
        "display_name": "Bureau of Internal Revenue - Revenue District Office No. 107-Cotabato City",
        "latitude": "7.2223104",
        "longitude": "124.2504679",
        "types": "{store,point_of_interest,establishment}"
    },
    {
        "ID": 24,
        "display_name": "LBC Express - Cotabato",
        "latitude": "7.2209294",
        "longitude": "124.2502175",
        "types": "{courier_service,finance,point_of_interest,establishment}"
    },
    {
        "ID": 25,
        "display_name": "Jollibee Cotabato Quezon Avenue Drive Thru",
        "latitude": "7.22252560000000",
        "longitude": "124.2522618",
        "types": "{fast_food_restaurant,restaurant,food,point_of_interest,establishment}"
    },
    {
        "ID": 26,
        "display_name": "Pag-Ibig Fund - Cotabato Branch",
        "latitude": "7.220258",
        "longitude": "124.25118",
        "types": "{point_of_interest,establishment}"
    },
    {
        "ID": 27,
        "display_name": "Cotabato - Davao Terminal",
        "latitude": "7.2226843",
        "longitude": "124.251851",
        "types": "{local_government_office,point_of_interest,establishment}"
    },
    {
        "ID": 28,
        "display_name": "Superama",
        "latitude": "7.22088569999999",
        "longitude": "124.2531768",
        "types": "{department_store,fast_food_restaurant,hardware_store,pharmacy,bakery,health,grocery_store,furniture_store,home_improvement_store,home_goods_store,store,restaurant,food,point_of_interest,establishment}"
    },
    {
        "ID": 29,
        "display_name": "BDO Cotabato - S.K. Pendatun Branch",
        "latitude": "7.2221171",
        "longitude": "124.2506869",
        "types": "{bank,finance,point_of_interest,establishment}"
    },
    {
        "ID": 30,
        "display_name": "Armed Forces and Police Mutual Benefit Association, Incorporated",
        "latitude": "7.22096060000000",
        "longitude": "124.2507074",
        "types": "{point_of_interest,establishment}"
    },
    {
        "ID": 31,
        "display_name": "LBC Express - Magallanes Cotabato",
        "latitude": "7.2207293",
        "longitude": "124.2506137",
        "types": "{courier_service,finance,point_of_interest,establishment}"
    },
    {
        "ID": 32,
        "display_name": "JRS Express",
        "latitude": "7.22099699999999",
        "longitude": "124.250162",
        "types": "{point_of_interest,establishment}"
    },
    {
        "ID": 33,
        "display_name": "Shell",
        "latitude": "7.2218439",
        "longitude": "124.251470299999",
        "types": "{gas_station,car_wash,convenience_store,store,food,point_of_interest,establishment}"
    },
    {
        "ID": 34,
        "display_name": "Reese Resto",
        "latitude": "7.22093099999999",
        "longitude": "124.2505318",
        "types": "{restaurant,food,point_of_interest,establishment}"
    },
    {
        "ID": 35,
        "display_name": "ELENA V. CO HARDWARE, INC",
        "latitude": "7.2215213",
        "longitude": "124.252139399999",
        "types": "{hardware_store,store,point_of_interest,establishment}"
    },
    {
        "ID": 36,
        "display_name": "Insular Life",
        "latitude": "7.2221521",
        "longitude": "124.2507079",
        "types": "{insurance_agency,point_of_interest,establishment}"
    },
    {
        "ID": 37,
        "display_name": "Philippine Statistics Authority Region XII",
        "latitude": "7.22276039999999",
        "longitude": "124.2509612",
        "types": "{point_of_interest,establishment}"
    },
    {
        "ID": 38,
        "display_name": "Octagon",
        "latitude": "7.22279380000000",
        "longitude": "124.2510803",
        "types": "{electronics_store,store,point_of_interest,establishment}"
    },
    {
        "ID": 39,
        "display_name": "EastWest Bank",
        "latitude": "7.22233969999999",
        "longitude": "124.2525652",
        "types": "{bank,finance,point_of_interest,establishment}"
    },
    {
        "ID": 40,
        "display_name": "PLDT Sales & Service Center",
        "latitude": "7.22188960000000",
        "longitude": "124.250007099999",
        "types": "{telecommunications_service_provider,point_of_interest,establishment}"
    },
    {
        "ID": 41,
        "display_name": "Ilagan City Community Center",
        "latitude": "17.1478979999999",
        "longitude": "121.889909",
        "types": "{community_center,event_venue,point_of_interest,establishment}"
    },
    {
        "ID": 42,
        "display_name": "The Blanket Hotel And Restaurant - Ilagan City",
        "latitude": "17.1478149999999",
        "longitude": "121.8886294",
        "types": "{hotel,lodging,point_of_interest,establishment}"
    },
    {
        "ID": 43,
        "display_name": "RTC 2 ANNEX TABACALERA",
        "latitude": "17.1465729",
        "longitude": "121.8877507",
        "types": "{point_of_interest,establishment}"
    },
    {
        "ID": 44,
        "display_name": "Xentro Mall Ilagan",
        "latitude": "17.1457136999999",
        "longitude": "121.8895303",
        "types": "{shopping_mall,point_of_interest,establishment}"
    },
    {
        "ID": 45,
        "display_name": "St. Ferdinand Parish Church - Centro Poblacion, Ilagan City, Isabela (Diocese of Ilagan)",
        "latitude": "17.1490503",
        "longitude": "121.8891197",
        "types": "{church,place_of_worship,point_of_interest,establishment}"
    },
    {
        "ID": 46,
        "display_name": "GV FLORIDA Ilagan Terminal",
        "latitude": "17.1465703999999",
        "longitude": "121.8882633",
        "types": "{point_of_interest,establishment}"
    },
    {
        "ID": 47,
        "display_name": "7 Eleven 3581 Ilagan Xentro",
        "latitude": "17.145927",
        "longitude": "121.8894092",
        "types": "{convenience_store,store,food,point_of_interest,establishment}"
    },
    {
        "ID": 48,
        "display_name": "Juan Stop Hotel",
        "latitude": "17.1472652",
        "longitude": "121.8887977",
        "types": "{hotel,lodging,point_of_interest,establishment}"
    },
    {
        "ID": 49,
        "display_name": "Dr. Victor S. Villaroman Memorial Hospital",
        "latitude": "17.1462961",
        "longitude": "121.8903416",
        "types": "{hospital,health,point_of_interest,establishment}"
    },
    {
        "ID": 50,
        "display_name": "Rizal Park",
        "latitude": "17.1488177",
        "longitude": "121.8893113",
        "types": "{park,point_of_interest,establishment}"
    },
    {
        "ID": 51,
        "display_name": "Ilagan East Central School",
        "latitude": "17.1483539",
        "longitude": "121.8897271",
        "types": "{primary_school,school,point_of_interest,establishment}"
    },
    {
        "ID": 52,
        "display_name": "Centro Poblacion Barangay Health Center",
        "latitude": "17.1478345",
        "longitude": "121.8901724",
        "types": "{health,point_of_interest,establishment}"
    },
    {
        "ID": 53,
        "display_name": "San Antonio Hotel",
        "latitude": "17.1462125",
        "longitude": "121.8899335",
        "types": "{hotel,lodging,point_of_interest,establishment}"
    },
    {
        "ID": 54,
        "display_name": "Superior Restaurant",
        "latitude": "17.1469518999999",
        "longitude": "121.8887997",
        "types": "{restaurant,food,point_of_interest,establishment}"
    },
    {
        "ID": 55,
        "display_name": "Ilgan East SPED Integrated School",
        "latitude": "17.1477811",
        "longitude": "121.8888666",
        "types": "{school,point_of_interest,establishment}"
    },
    {
        "ID": 56,
        "display_name": "PNB Centro Ilagan",
        "latitude": "17.1464811",
        "longitude": "121.8892271",
        "types": "{atm,finance,point_of_interest,establishment}"
    },
    {
        "ID": 57,
        "display_name": "Sky Mart Korean Grocery Ilagan",
        "latitude": "17.1481028000000",
        "longitude": "121.888755499999",
        "types": "{grocery_store,store,food,point_of_interest,establishment}"
    },
    {
        "ID": 58,
        "display_name": "Villarica Pawnshop - Ilagan Branch",
        "latitude": "17.1460299",
        "longitude": "121.8890767",
        "types": "{finance,store,point_of_interest,establishment}"
    },
    {
        "ID": 59,
        "display_name": "INGCO Tools Ilagan",
        "latitude": "17.1463283",
        "longitude": "121.8892635",
        "types": "{hardware_store,store,point_of_interest,establishment}"
    },
    {
        "ID": 60,
        "display_name": "Up To Date General Merchandise",
        "latitude": "17.1465069",
        "longitude": "121.888951999999",
        "types": "{grocery_store,store,food,point_of_interest,establishment}"
    },
    {
        "ID": 61,
        "display_name": "Shangri-La The Fort, Manila",
        "latitude": "14.5524815999999",
        "longitude": "121.0468063",
        "types": "{hotel,lodging,point_of_interest,establishment}"
    },
    {
        "ID": 62,
        "display_name": "One Bonifacio High Street by Ayala Malls",
        "latitude": "14.5511734999999",
        "longitude": "121.0469302",
        "types": "{shopping_mall,point_of_interest,establishment}"
    },
    {
        "ID": 63,
        "display_name": "Harlan + Holden Coffee (Because Coffee)",
        "latitude": "14.5514103999999",
        "longitude": "121.0473683",
        "types": "{coffee_shop,cafe,point_of_interest,store,food,establishment}"
    },
    {
        "ID": 64,
        "display_name": "The Alley by Vikings BGC",
        "latitude": "14.5511674",
        "longitude": "121.048202099999",
        "types": "{restaurant,point_of_interest,food,establishment}"
    },
    {
        "ID": 65,
        "display_name": "Ascott Bonifacio Global City",
        "latitude": "14.5505237",
        "longitude": "121.0469192",
        "types": "{hotel,lodging,point_of_interest,establishment}"
    },
    {
        "ID": 66,
        "display_name": "Arthaland Century Pacific Tower",
        "latitude": "14.5526417",
        "longitude": "121.0476734",
        "types": "{point_of_interest,establishment}"
    },
    {
        "ID": 67,
        "display_name": "American Express International Inc.",
        "latitude": "14.5525179000000",
        "longitude": "121.0482295",
        "types": "{point_of_interest,establishment}"
    },
    {
        "ID": 68,
        "display_name": "Manam Netpark",
        "latitude": "14.5499955",
        "longitude": "121.0466321",
        "types": "{restaurant,point_of_interest,food,establishment}"
    },
    {
        "ID": 69,
        "display_name": "Din Tai Fung",
        "latitude": "14.5511587",
        "longitude": "121.0481399",
        "types": "{chinese_restaurant,restaurant,point_of_interest,food,establishment}"
    },
    {
        "ID": 70,
        "display_name": "Asian Century Center",
        "latitude": "14.5507081999999",
        "longitude": "121.0460961",
        "types": "{point_of_interest,establishment}"
    },
    {
        "ID": 71,
        "display_name": "Bonifacio High Street - Central Square",
        "latitude": "14.5518369",
        "longitude": "121.0484338",
        "types": "{shopping_mall,point_of_interest,establishment}"
    },
    {
        "ID": 72,
        "display_name": "ZARA",
        "latitude": "14.5516104",
        "longitude": "121.046689",
        "types": "{clothing_store,point_of_interest,store,establishment}"
    },
    {
        "ID": 73,
        "display_name": "Gentle Monster Manila Shangri-La",
        "latitude": "14.5520159999999",
        "longitude": "121.0477203",
        "types": "{point_of_interest,store,establishment}"
    },
    {
        "ID": 74,
        "display_name": "The Suites at One Bonifacio High Street",
        "latitude": "14.551454",
        "longitude": "121.0466672",
        "types": "{point_of_interest,establishment}"
    },
    {
        "ID": 75,
        "display_name": "Seven NEO",
        "latitude": "14.5499957000000",
        "longitude": "121.047037099999",
        "types": "{point_of_interest,establishment}"
    },
    {
        "ID": 76,
        "display_name": "Caffe Pocofino",
        "latitude": "14.5524446",
        "longitude": "121.048738899999",
        "types": "{coffee_shop,cafe,point_of_interest,store,food,establishment}"
    },
    {
        "ID": 77,
        "display_name": "Google Philippines",
        "latitude": "14.5500108",
        "longitude": "121.0467196",
        "types": "{point_of_interest,establishment}"
    },
    {
        "ID": 78,
        "display_name": "BGC 3D LED SCREEN",
        "latitude": "14.551435",
        "longitude": "121.0473827",
        "types": "{point_of_interest,establishment}"
    },
    {
        "ID": 79,
        "display_name": "BBQ Chicken - BGC",
        "latitude": "14.5516174999999",
        "longitude": "121.048872399999",
        "types": "{korean_restaurant,restaurant,point_of_interest,food,establishment}"
    },
    {
        "ID": 80,
        "display_name": "Shake Shack",
        "latitude": "14.5516767000000",
        "longitude": "121.0482595",
        "types": "{hamburger_restaurant,meal_takeaway,american_restaurant,restaurant,point_of_interest,food,establishment}"
    },
    {
        "ID": 81,
        "display_name": "The Landmark BGC",
        "latitude": "14.5526224999999",
        "longitude": "121.0491703",
        "types": "{supermarket,grocery_store,store,food,point_of_interest,establishment}"
    },
    {
        "ID": 82,
        "display_name": "Uniqlo",
        "latitude": "14.5518531999999",
        "longitude": "121.0496989",
        "types": "{clothing_store,store,point_of_interest,establishment}"
    },
    {
        "ID": 83,
        "display_name": "Mango Tree | Bonifacio High Street Central",
        "latitude": "14.5514793",
        "longitude": "121.049496399999",
        "types": "{thai_restaurant,restaurant,food,point_of_interest,establishment}"
    },
    {
        "ID": 84,
        "display_name": "The W Fifth Avenue",
        "latitude": "14.553361",
        "longitude": "121.0490325",
        "types": "{point_of_interest,establishment}"
    },
    {
        "ID": 85,
        "display_name": "HSBC Philippines - Bonifacio Global City",
        "latitude": "14.553584",
        "longitude": "121.048114",
        "types": "{finance,point_of_interest,establishment}"
    },
    {
        "ID": 86,
        "display_name": "World Plaza",
        "latitude": "14.5531661",
        "longitude": "121.0479674",
        "types": "{point_of_interest,establishment}"
    },
    {
        "ID": 87,
        "display_name": "George and Onnie's - BGC",
        "latitude": "14.5533073000000",
        "longitude": "121.047611699999",
        "types": "{cafe,bakery,store,restaurant,food,point_of_interest,establishment}"
    },
    {
        "ID": 88,
        "display_name": "Go Hotels Plus Mandaluyong",
        "latitude": "14.5701095",
        "longitude": "121.0468516",
        "types": "{hotel,lodging,point_of_interest,establishment}"
    },
    {
        "ID": 89,
        "display_name": "Octoboy 33 Edsa",
        "latitude": "14.5713999",
        "longitude": "121.0465122",
        "types": "{japanese_restaurant,restaurant,point_of_interest,food,establishment}"
    },
    {
        "ID": 90,
        "display_name": "Robinsons Cybergate Plaza",
        "latitude": "14.5700883000000",
        "longitude": "121.0468417",
        "types": "{point_of_interest,establishment}"
    },
    {
        "ID": 91,
        "display_name": "Philippine Red Cross",
        "latitude": "14.5720267",
        "longitude": "121.046693",
        "types": "{point_of_interest,health,establishment}"
    },
    {
        "ID": 92,
        "display_name": "NEX 54",
        "latitude": "14.572598",
        "longitude": "121.04651",
        "types": "{point_of_interest,establishment}"
    },
    {
        "ID": 93,
        "display_name": "Caltex EDSA - Boni Ave.",
        "latitude": "14.5724682",
        "longitude": "121.0470239",
        "types": "{gas_station,point_of_interest,establishment}"
    },
    {
        "ID": 94,
        "display_name": "Foundever Career Center (Pioneer 2)",
        "latitude": "14.5701774",
        "longitude": "121.047360599999",
        "types": "{point_of_interest,establishment}"
    },
    {
        "ID": 95,
        "display_name": "Office of the Vice President of the Republic of the Philippines",
        "latitude": "14.5700883000000",
        "longitude": "121.0468417",
        "types": "{point_of_interest,establishment}"
    },
    {
        "ID": 96,
        "display_name": "Smart Driving School",
        "latitude": "14.5719420000000",
        "longitude": "121.046113999999",
        "types": "{point_of_interest,establishment}"
    },
    {
        "ID": 97,
        "display_name": "Amber Golden Chain of Restaurants",
        "latitude": "14.5703501",
        "longitude": "121.046225299999",
        "types": "{restaurant,point_of_interest,food,establishment}"
    },
    {
        "ID": 98,
        "display_name": "PHINMA Property Holdings",
        "latitude": "14.5705275",
        "longitude": "121.046179099999",
        "types": "{general_contractor,point_of_interest,establishment}"
    },
    {
        "ID": 99,
        "display_name": "UnionBank of the Philippines - Edsa Pioneer",
        "latitude": "14.5712417",
        "longitude": "121.0478846",
        "types": "{bank,finance,point_of_interest,establishment}"
    },
    {
        "ID": 100,
        "display_name": "Ace Promotion and Marketing Corporation",
        "latitude": "14.5717022",
        "longitude": "121.0457157",
        "types": "{point_of_interest,establishment}"
    },
    {
        "ID": 101,
        "display_name": "Pro Parking",
        "latitude": "14.5723203",
        "longitude": "121.0478918",
        "types": "{parking,point_of_interest,establishment}"
    },
    {
        "ID": 102,
        "display_name": "7-Eleven 576 Boni EDSA",
        "latitude": "14.5723513",
        "longitude": "121.0469356",
        "types": "{convenience_store,point_of_interest,store,food,establishment}"
    },
    {
        "ID": 103,
        "display_name": "Ilaya Barangka Intergrated School",
        "latitude": "14.5714648",
        "longitude": "121.044883499999",
        "types": "{school,point_of_interest,establishment}"
    },
    {
        "ID": 104,
        "display_name": "Bagong Pilipinas Headquarters",
        "latitude": "14.5709344",
        "longitude": "121.046393",
        "types": "{point_of_interest,establishment}"
    },
    {
        "ID": 105,
        "display_name": "OMF Lit Bookshop",
        "latitude": "14.572978",
        "longitude": "121.045842",
        "types": "{wholesaler,book_store,point_of_interest,store,establishment}"
    },
    {
        "ID": 106,
        "display_name": "Dunkin' Donuts",
        "latitude": "14.5721732999999",
        "longitude": "121.0468295",
        "types": "{point_of_interest,bakery,store,food,establishment}"
    },
    {
        "ID": 107,
        "display_name": "Scopro Optical Co., Inc.",
        "latitude": "14.569885",
        "longitude": "121.0455622",
        "types": "{sporting_goods_store,point_of_interest,store,establishment}"
    },
    {
        "ID": 108,
        "display_name": "Hyundai - Pasig",
        "latitude": "14.5704575",
        "longitude": "121.0708965",
        "types": "{finance,car_dealer,store,point_of_interest,establishment}"
    },
    {
        "ID": 109,
        "display_name": "Suzuki Dealer",
        "latitude": "14.5705320000000",
        "longitude": "121.070984799999",
        "types": "{car_dealer,store,point_of_interest,establishment}"
    },
    {
        "ID": 110,
        "display_name": "ePLDT Vitro Data Center",
        "latitude": "14.5697656",
        "longitude": "121.070430299999",
        "types": "{point_of_interest,establishment}"
    },
    {
        "ID": 111,
        "display_name": "Loc&Stor 24/7 Storage Space For Rent Pasig Philippines",
        "latitude": "14.5695696",
        "longitude": "121.0712085",
        "types": "{storage,point_of_interest,establishment}"
    },
    {
        "ID": 112,
        "display_name": "Polymer Products (Phil.) Inc. - Pasig - Main Branch",
        "latitude": "14.5708389",
        "longitude": "121.0728225",
        "types": "{point_of_interest,establishment}"
    },
    {
        "ID": 113,
        "display_name": "Lalamove Pasig Hub",
        "latitude": "14.5707539999999",
        "longitude": "121.073124",
        "types": "{point_of_interest,establishment}"
    },
    {
        "ID": 114,
        "display_name": "Amon trading compound",
        "latitude": "14.5694947000000",
        "longitude": "121.0712946",
        "types": "{point_of_interest,establishment}"
    },
    {
        "ID": 115,
        "display_name": "Mitsubishi Pasig New Site",
        "latitude": "14.5707467",
        "longitude": "121.070969199999",
        "types": "{car_dealer,store,point_of_interest,establishment}"
    },
    {
        "ID": 116,
        "display_name": "RI Chemical Corporation",
        "latitude": "14.5711307",
        "longitude": "121.0724563",
        "types": "{point_of_interest,establishment}"
    },
    {
        "ID": 117,
        "display_name": "Mitsubishi Gateway Pasig",
        "latitude": "14.5708297",
        "longitude": "121.0710215",
        "types": "{car_dealer,store,point_of_interest,establishment}"
    },
    {
        "ID": 118,
        "display_name": "Rider Levett Bucknall Philippines, Inc.",
        "latitude": "14.5705182",
        "longitude": "121.070136899999",
        "types": "{finance,point_of_interest,establishment}"
    },
    {
        "ID": 119,
        "display_name": "Chateau Verde Condominium Corporation",
        "latitude": "14.5720176",
        "longitude": "121.0708694",
        "types": "{lodging,point_of_interest,establishment}"
    },
    {
        "ID": 120,
        "display_name": "Security Bank",
        "latitude": "14.5712343",
        "longitude": "121.0715218",
        "types": "{bank,finance,point_of_interest,establishment}"
    },
    {
        "ID": 121,
        "display_name": "Project Duo Events and Marketing Corp.",
        "latitude": "14.5718044999999",
        "longitude": "121.071139599999",
        "types": "{point_of_interest,establishment}"
    },
    {
        "ID": 122,
        "display_name": "KSB Philippines, Inc.",
        "latitude": "14.5691923",
        "longitude": "121.0721053",
        "types": "{point_of_interest,establishment}"
    },
    {
        "ID": 123,
        "display_name": "SEAOIL - C5 ATIS",
        "latitude": "14.5713597",
        "longitude": "121.0711984",
        "types": "{gas_station,point_of_interest,establishment}"
    },
    {
        "ID": 124,
        "display_name": "NS4 Building",
        "latitude": "14.5614891",
        "longitude": "121.0681991",
        "types": "{point_of_interest,establishment}"
    },
    {
        "ID": 125,
        "display_name": "Active Central",
        "latitude": "14.5708933",
        "longitude": "121.0715834",
        "types": "{gym,health,point_of_interest,establishment}"
    },
    {
        "ID": 126,
        "display_name": "7-Eleven (1262) CPI C5 UGONG PASIG",
        "latitude": "14.571136",
        "longitude": "121.0711947",
        "types": "{convenience_store,store,food,point_of_interest,establishment}"
    },
    {
        "ID": 127,
        "display_name": "Philippine Iron Construction & Marine Works Inc.",
        "latitude": "14.5707358",
        "longitude": "121.0731047",
        "types": "{general_contractor,point_of_interest,establishment}"
    },
    {
        "ID": 128,
        "display_name": "3 Atis St. Valle Verde",
        "latitude": "14.5717286",
        "longitude": "121.0707822",
        "types": "{point_of_interest,establishment}"
    },
    {
        "ID": 129,
        "display_name": "Buendia station",
        "latitude": "14.5544215999999",
        "longitude": "121.0343494",
        "types": "{transit_station,point_of_interest,establishment}"
    },
    {
        "ID": 130,
        "display_name": "Buendia MRT",
        "latitude": "14.554619",
        "longitude": "121.034436",
        "types": "{bus_stop,transit_station,point_of_interest,establishment}"
    },
    {
        "ID": 131,
        "display_name": "Shell",
        "latitude": "14.5554624",
        "longitude": "121.0349128",
        "types": "{gas_station,point_of_interest,establishment}"
    },
    {
        "ID": 132,
        "display_name": "VXI Makati Recruitment Center",
        "latitude": "14.5561598",
        "longitude": "121.0342554",
        "types": "{point_of_interest,establishment}"
    },
    {
        "ID": 133,
        "display_name": "MRT-3 Buendia Station",
        "latitude": "14.5545726",
        "longitude": "121.034493999999",
        "types": "{point_of_interest,establishment}"
    },
    {
        "ID": 134,
        "display_name": "Buendia",
        "latitude": "14.5545957999999",
        "longitude": "121.034515299999",
        "types": "{transit_station,point_of_interest,establishment}"
    },
    {
        "ID": 135,
        "display_name": "Capital O 907 Ceo Flats",
        "latitude": "14.5562643",
        "longitude": "121.034746299999",
        "types": "{hotel,lodging,point_of_interest,establishment}"
    },
    {
        "ID": 136,
        "display_name": "Edsa Carousel Bus Stop - Buendia",
        "latitude": "14.5549622",
        "longitude": "121.0349397",
        "types": "{local_government_office,point_of_interest,establishment}"
    },
    {
        "ID": 137,
        "display_name": "Jollibee Shell EDSA- Buendia",
        "latitude": "14.5556584",
        "longitude": "121.0351294",
        "types": "{fast_food_restaurant,hamburger_restaurant,meal_takeaway,american_restaurant,restaurant,point_of_interest,food,establishment}"
    },
    {
        "ID": 138,
        "display_name": "SM Cyber Two",
        "latitude": "14.5558926",
        "longitude": "121.0345433",
        "types": "{point_of_interest,establishment}"
    },
    {
        "ID": 139,
        "display_name": "Axa Prime Development Center",
        "latitude": "14.5556681",
        "longitude": "121.0345158",
        "types": "{point_of_interest,establishment}"
    },
    {
        "ID": 140,
        "display_name": "Satori Specialty Coffee",
        "latitude": "14.5564019",
        "longitude": "121.034799799999",
        "types": "{coffee_shop,cafe,point_of_interest,store,food,establishment}"
    },
    {
        "ID": 141,
        "display_name": "Buendia",
        "latitude": "14.5550964",
        "longitude": "121.0350804",
        "types": "{bus_stop,transit_station,point_of_interest,establishment}"
    },
    {
        "ID": 142,
        "display_name": "Casa Bella Home and Living",
        "latitude": "14.5563523",
        "longitude": "121.034830299999",
        "types": "{furniture_store,home_improvement_store,home_goods_store,point_of_interest,store,establishment}"
    },
    {
        "ID": 143,
        "display_name": "Buendia",
        "latitude": "14.554167",
        "longitude": "121.034375",
        "types": "{bus_station,transit_station,point_of_interest,establishment}"
    },
    {
        "ID": 144,
        "display_name": "Big Al's Cookie Jar",
        "latitude": "14.5564859000000",
        "longitude": "121.034717700000",
        "types": "{wholesaler,point_of_interest,bakery,store,food,establishment}"
    },
    {
        "ID": 145,
        "display_name": "Hammerjack",
        "latitude": "14.5570185",
        "longitude": "121.034456199999",
        "types": "{point_of_interest,establishment}"
    },
    {
        "ID": 146,
        "display_name": "Phildaf Building",
        "latitude": "14.5565105999999",
        "longitude": "121.0340681",
        "types": "{point_of_interest,establishment}"
    },
    {
        "ID": 147,
        "display_name": "Mercury Drug",
        "latitude": "14.5557501",
        "longitude": "121.0349864",
        "types": "{drugstore,point_of_interest,store,health,establishment}"
    },
    {
        "ID": 148,
        "display_name": "Kuysen Design + Experience Center",
        "latitude": "14.5562072",
        "longitude": "121.0350137",
        "types": "{home_goods_store,point_of_interest,store,establishment}"
    },
    {
        "ID": 149,
        "display_name": "Hotel Sogo - EDSA Guadalupe",
        "latitude": "14.564489",
        "longitude": "121.0451257",
        "types": "{hotel,lodging,point_of_interest,establishment}"
    },
    {
        "ID": 150,
        "display_name": "Guadalupe Commercial Complex",
        "latitude": "14.5660409999999",
        "longitude": "121.0456901",
        "types": "{shopping_mall,point_of_interest,establishment}"
    },
    {
        "ID": 151,
        "display_name": "Guadalupe Public Market",
        "latitude": "14.5659704",
        "longitude": "121.0459518",
        "types": "{market,point_of_interest,establishment}"
    },
    {
        "ID": 152,
        "display_name": "Jollibee",
        "latitude": "14.5653579",
        "longitude": "121.0454604",
        "types": "{fast_food_restaurant,hamburger_restaurant,american_restaurant,meal_takeaway,restaurant,food,point_of_interest,establishment}"
    },
    {
        "ID": 153,
        "display_name": "Loyola Memorial Chapels & Crematorium Guadalupe",
        "latitude": "14.565364",
        "longitude": "121.044473999999",
        "types": "{funeral_home,cemetery,point_of_interest,establishment}"
    },
    {
        "ID": 154,
        "display_name": "Astrotel Hotel Guadalupe",
        "latitude": "14.5643394",
        "longitude": "121.0459241",
        "types": "{hotel,lodging,point_of_interest,establishment}"
    },
    {
        "ID": 155,
        "display_name": "Hotel Sogo - Yabut",
        "latitude": "14.5647077",
        "longitude": "121.045893799999",
        "types": "{hotel,lodging,point_of_interest,establishment}"
    },
    {
        "ID": 156,
        "display_name": "Edsa-Guadalupe Footbridge",
        "latitude": "14.5647897",
        "longitude": "121.0448723",
        "types": "{local_government_office,point_of_interest,establishment}"
    },
    {
        "ID": 157,
        "display_name": "McDonald's Guadalupe P. Victor",
        "latitude": "14.565258",
        "longitude": "121.046422999999",
        "types": "{fast_food_restaurant,hamburger_restaurant,american_restaurant,meal_takeaway,restaurant,food,point_of_interest,establishment}"
    },
    {
        "ID": 158,
        "display_name": "Kimston Plaza",
        "latitude": "14.5653827999999",
        "longitude": "121.046348299999",
        "types": "{shopping_mall,point_of_interest,establishment}"
    },
    {
        "ID": 159,
        "display_name": "FLASH Express Guadalupe Nuevo",
        "latitude": "14.5652984",
        "longitude": "121.0456168",
        "types": "{point_of_interest,establishment}"
    },
    {
        "ID": 160,
        "display_name": "My Inn Edsa Guadalupe",
        "latitude": "14.5647665",
        "longitude": "121.0453301",
        "types": "{hotel,lodging,point_of_interest,establishment}"
    },
    {
        "ID": 161,
        "display_name": "Pag-IBIG Fund, Guadalupe-EDSA",
        "latitude": "14.5660129",
        "longitude": "121.0456285",
        "types": "{point_of_interest,establishment}"
    },
    {
        "ID": 162,
        "display_name": "Andok's",
        "latitude": "14.5640736",
        "longitude": "121.0453689",
        "types": "{meal_takeaway,restaurant,food,point_of_interest,establishment}"
    },
    {
        "ID": 163,
        "display_name": "Phoenix",
        "latitude": "14.5633277",
        "longitude": "121.044489299999",
        "types": "{gas_station,point_of_interest,establishment}"
    },
    {
        "ID": 164,
        "display_name": "Uni-MEC Supermart KIMSTON",
        "latitude": "14.5661485",
        "longitude": "121.0462994",
        "types": "{supermarket,grocery_store,store,food,point_of_interest,establishment}"
    },
    {
        "ID": 165,
        "display_name": "Guadalupe Bus Stop - Bus Stop A",
        "latitude": "14.5646401",
        "longitude": "121.0446378",
        "types": "{bus_stop,transit_station,point_of_interest,establishment}"
    },
    {
        "ID": 166,
        "display_name": "Mang Inasal - Edsa Guadalupe",
        "latitude": "14.5651476",
        "longitude": "121.0453646",
        "types": "{fast_food_restaurant,restaurant,food,point_of_interest,establishment}"
    },
    {
        "ID": 167,
        "display_name": "Landbank Guadalupe",
        "latitude": "14.5632627",
        "longitude": "121.044950199999",
        "types": "{bank,finance,point_of_interest,establishment}"
    },
    {
        "ID": 168,
        "display_name": "Super8 Grocery Warehouse Guadalupe",
        "latitude": "14.5662709999999",
        "longitude": "121.045706",
        "types": "{supermarket,grocery_store,store,food,point_of_interest,establishment}"
    },
    {
        "ID": 169,
        "display_name": "Hotel Sogo - Wood st.",
        "latitude": "14.5396651",
        "longitude": "121.010050399999",
        "types": "{hotel,lodging,point_of_interest,establishment}"
    },
    {
        "ID": 170,
        "display_name": "Evergreen Medical and Diagnostic Center",
        "latitude": "14.5387247",
        "longitude": "121.0082803",
        "types": "{medical_lab,hospital,point_of_interest,health,establishment}"
    },
    {
        "ID": 171,
        "display_name": "I LOVE YARN PH - MALIBAY PASAY",
        "latitude": "14.5384721000000",
        "longitude": "121.0101178",
        "types": "{point_of_interest,store,establishment}"
    },
    {
        "ID": 172,
        "display_name": "Park, Bed and Breakfast",
        "latitude": "14.5394489000000",
        "longitude": "121.0097449",
        "types": "{hotel,lodging,point_of_interest,establishment}"
    },
    {
        "ID": 173,
        "display_name": "WILCON Home Essentials - Pasay",
        "latitude": "14.539003",
        "longitude": "121.010708999999",
        "types": "{hardware_store,furniture_store,home_improvement_store,home_goods_store,point_of_interest,store,establishment}"
    },
    {
        "ID": 174,
        "display_name": "Casadespa",
        "latitude": "14.5390693",
        "longitude": "121.0105509",
        "types": "{spa,point_of_interest,establishment}"
    },
    {
        "ID": 175,
        "display_name": "Jolliland Condominium I Corporation.",
        "latitude": "14.5381253",
        "longitude": "121.0076972",
        "types": "{point_of_interest,establishment}"
    },
    {
        "ID": 176,
        "display_name": "Yamaha 3S Shop - Premio",
        "latitude": "14.5386964999999",
        "longitude": "121.008591",
        "types": "{point_of_interest,store,establishment}"
    },
    {
        "ID": 177,
        "display_name": "Petron Gas Station",
        "latitude": "14.5387959000000",
        "longitude": "121.0088939",
        "types": "{gas_station,point_of_interest,establishment}"
    },
    {
        "ID": 178,
        "display_name": "Canseco OBGYN Clinic",
        "latitude": "14.5380113",
        "longitude": "121.010658299999",
        "types": "{consultant,doctor,point_of_interest,health,establishment}"
    },
    {
        "ID": 179,
        "display_name": "Bible Baptist Church of Pasay",
        "latitude": "14.5374604999999",
        "longitude": "121.0081856",
        "types": "{church,place_of_worship,point_of_interest,establishment}"
    },
    {
        "ID": 180,
        "display_name": "Barangay 143",
        "latitude": "14.5387358",
        "longitude": "121.0078631",
        "types": "{local_government_office,point_of_interest,establishment}"
    },
    {
        "ID": 181,
        "display_name": "Sofel Hotel",
        "latitude": "14.5380617000000",
        "longitude": "121.0075598",
        "types": "{hotel,lodging,point_of_interest,establishment}"
    },
    {
        "ID": 182,
        "display_name": "Red Ribbon Edsa Malibay",
        "latitude": "14.5384673",
        "longitude": "121.010191399999",
        "types": "{bakery,point_of_interest,food,store,establishment}"
    },
    {
        "ID": 183,
        "display_name": "7-Eleven",
        "latitude": "14.53846",
        "longitude": "121.010661",
        "types": "{convenience_store,point_of_interest,food,store,establishment}"
    },
    {
        "ID": 184,
        "display_name": "UCPB Malibay ATM",
        "latitude": "14.5390027",
        "longitude": "121.0104941",
        "types": "{bank,finance,point_of_interest,establishment}"
    },
    {
        "ID": 185,
        "display_name": "Suzuki Genuine Parts",
        "latitude": "14.5381409999999",
        "longitude": "121.008299",
        "types": "{auto_parts_store,car_repair,point_of_interest,store,establishment}"
    },
    {
        "ID": 186,
        "display_name": "BPI - Family Savings Bank",
        "latitude": "14.5383522",
        "longitude": "121.0107",
        "types": "{bank,finance,point_of_interest,establishment}"
    },
    {
        "ID": 187,
        "display_name": "The Market Place Christian Church, Inc.",
        "latitude": "14.53926",
        "longitude": "121.0098547",
        "types": "{point_of_interest,establishment}"
    },
    {
        "ID": 188,
        "display_name": "A DEEPLY PLEASURE MASSAGE HOME & HOTEL SERVICE MASSAGE",
        "latitude": "14.5394049",
        "longitude": "121.0100013",
        "types": "{spa,point_of_interest,health,establishment}"
    },
    {
        "ID": 189,
        "display_name": "Mercury Drug Malibay",
        "latitude": "14.538508",
        "longitude": "121.010945",
        "types": "{drugstore,pharmacy,health,store,point_of_interest,establishment}"
    },
    {
        "ID": 190,
        "display_name": "Career Philippines Shipmanagement, Inc.",
        "latitude": "14.5393545",
        "longitude": "121.0115156",
        "types": "{point_of_interest,establishment}"
    },
    {
        "ID": 191,
        "display_name": "Jollibee",
        "latitude": "14.5392943",
        "longitude": "121.0121738",
        "types": "{fast_food_restaurant,hamburger_restaurant,meal_takeaway,american_restaurant,restaurant,food,point_of_interest,establishment}"
    },
    {
        "ID": 192,
        "display_name": "McDonald's Evangelista",
        "latitude": "14.5392799999999",
        "longitude": "121.012427",
        "types": "{fast_food_restaurant,hamburger_restaurant,meal_takeaway,american_restaurant,restaurant,food,point_of_interest,establishment}"
    },
    {
        "ID": 193,
        "display_name": "Camox Philippines, Inc.",
        "latitude": "14.539933",
        "longitude": "121.012",
        "types": "{point_of_interest,establishment}"
    },
    {
        "ID": 194,
        "display_name": "Mercury Drug Evangelista",
        "latitude": "14.5402107999999",
        "longitude": "121.0119584",
        "types": "{pharmacy,health,store,point_of_interest,establishment}"
    },
    {
        "ID": 195,
        "display_name": "RCBC ATM - MDC Malibay Pasay",
        "latitude": "14.5385481",
        "longitude": "121.01096",
        "types": "{atm,finance,point_of_interest,establishment}"
    },
    {
        "ID": 196,
        "display_name": "PBMD",
        "latitude": "14.5387952",
        "longitude": "121.0133958",
        "types": "{general_contractor,point_of_interest,establishment}"
    },
    {
        "ID": 197,
        "display_name": "Pitex",
        "latitude": "14.5389377000000",
        "longitude": "121.010877299999",
        "types": "{point_of_interest,establishment}"
    },
    {
        "ID": 198,
        "display_name": "XSIKLOZ Makati",
        "latitude": "14.5398175",
        "longitude": "121.0121057",
        "types": "{sporting_goods_store,store,point_of_interest,establishment}"
    },
    {
        "ID": 199,
        "display_name": "Caltex | Malibay",
        "latitude": "14.5387398000000",
        "longitude": "121.0122533",
        "types": "{gas_station,point_of_interest,establishment}"
    },
    {
        "ID": 200,
        "display_name": "7-Eleven",
        "latitude": "14.5395751",
        "longitude": "121.0124455",
        "types": "{convenience_store,store,food,point_of_interest,establishment}"
    },
    {
        "ID": 201,
        "display_name": "Desmark Corporation (Honda 3S Shop)",
        "latitude": "14.5390762000000",
        "longitude": "121.0113091",
        "types": "{car_dealer,store,point_of_interest,establishment}"
    },
    {
        "ID": 202,
        "display_name": "Toyosco Parts Center, Inc.",
        "latitude": "14.5392001",
        "longitude": "121.0115449",
        "types": "{auto_parts_store,car_repair,store,point_of_interest,establishment}"
    },
    {
        "ID": 203,
        "display_name": "Sophia's Place",
        "latitude": "14.5381511",
        "longitude": "121.0120822",
        "types": "{resort_hotel,hotel,lodging,point_of_interest,establishment}"
    },
    {
        "ID": 204,
        "display_name": "Super8 Grocery Warehouse Malibay",
        "latitude": "14.5374907",
        "longitude": "121.0106894",
        "types": "{grocery_store,store,food,point_of_interest,establishment}"
    },
    {
        "ID": 205,
        "display_name": "BIR RDO 27",
        "latitude": "14.6575175",
        "longitude": "120.9911553",
        "types": "{accounting,finance,local_government_office,point_of_interest,establishment}"
    },
    {
        "ID": 206,
        "display_name": "WCC Aeronautical and Technological College",
        "latitude": "14.656337",
        "longitude": "120.991441",
        "types": "{point_of_interest,establishment}"
    },
    {
        "ID": 207,
        "display_name": "SSS Caloocan",
        "latitude": "14.6575479",
        "longitude": "120.9930796",
        "types": "{local_government_office,point_of_interest,establishment}"
    },
    {
        "ID": 208,
        "display_name": "McDonald's Edsa Caloocan",
        "latitude": "14.6570355",
        "longitude": "120.9942697",
        "types": "{fast_food_restaurant,hamburger_restaurant,meal_takeaway,american_restaurant,restaurant,point_of_interest,food,establishment}"
    },
    {
        "ID": 209,
        "display_name": "Max's Restaurant",
        "latitude": "14.6568817",
        "longitude": "120.9918711",
        "types": "{restaurant,point_of_interest,food,establishment}"
    },
    {
        "ID": 210,
        "display_name": "Bureau of Internal Revenue - Revenue Region No. 5 Caloocan, Metro Manila",
        "latitude": "14.6575148",
        "longitude": "120.9911546",
        "types": "{accounting,finance,local_government_office,point_of_interest,establishment}"
    },
    {
        "ID": 211,
        "display_name": "UnionBank of the Philippines - Edsa-Kalookan",
        "latitude": "14.6569188",
        "longitude": "120.9927958",
        "types": "{bank,finance,point_of_interest,establishment}"
    },
    {
        "ID": 212,
        "display_name": "World Citi Colleges, Caloocan",
        "latitude": "14.656209",
        "longitude": "120.9915228",
        "types": "{secondary_school,primary_school,university,school,point_of_interest,establishment}"
    },
    {
        "ID": 213,
        "display_name": "Suzuki Auto Kalookan",
        "latitude": "14.6576261000000",
        "longitude": "120.9941482",
        "types": "{car_dealer,point_of_interest,store,establishment}"
    },
    {
        "ID": 214,
        "display_name": "Wendy's - Caltex EDSA Caloocan",
        "latitude": "14.657621",
        "longitude": "120.9917836",
        "types": "{fast_food_restaurant,restaurant,point_of_interest,food,establishment}"
    },
    {
        "ID": 215,
        "display_name": "Nissan Caloocan",
        "latitude": "14.6575288",
        "longitude": "120.991934299999",
        "types": "{car_dealer,point_of_interest,store,establishment}"
    },
    {
        "ID": 216,
        "display_name": "Asia United Bank EDSA Caloocan Branch",
        "latitude": "14.6569495",
        "longitude": "120.9920515",
        "types": "{bank,finance,point_of_interest,establishment}"
    },
    {
        "ID": 217,
        "display_name": "Security Bank",
        "latitude": "14.6569764",
        "longitude": "120.992893499999",
        "types": "{bank,finance,point_of_interest,establishment}"
    },
    {
        "ID": 218,
        "display_name": "BDO EDSA - East Caloocan Branch",
        "latitude": "14.6575005",
        "longitude": "120.9908211",
        "types": "{bank,finance,point_of_interest,establishment}"
    },
    {
        "ID": 219,
        "display_name": "Ingco service center",
        "latitude": "14.6576231",
        "longitude": "120.992443",
        "types": "{point_of_interest,establishment}"
    },
    {
        "ID": 220,
        "display_name": "William Shaw Residences",
        "latitude": "14.656231",
        "longitude": "120.992767",
        "types": "{point_of_interest,establishment}"
    },
    {
        "ID": 221,
        "display_name": "PICKUP COFFEE - Caltex EDSA Caloocan",
        "latitude": "14.6575289999999",
        "longitude": "120.9919506",
        "types": "{coffee_shop,cafe,point_of_interest,store,food,establishment}"
    },
    {
        "ID": 222,
        "display_name": "Bureau of Internal Revenue, Region No. 5, Assistant Regional Director Office",
        "latitude": "14.6575778",
        "longitude": "120.9911528",
        "types": "{point_of_interest,establishment}"
    },
    {
        "ID": 223,
        "display_name": "Suzuki Cars Kalookan",
        "latitude": "14.6580945999999",
        "longitude": "120.9939418",
        "types": "{car_dealer,point_of_interest,store,establishment}"
    },
    {
        "ID": 224,
        "display_name": "RCBC BRANCH - EDSA KALOOKAN",
        "latitude": "14.6569607999999",
        "longitude": "120.9930231",
        "types": "{bank,atm,finance,point_of_interest,establishment}"
    },
    {
        "ID": 225,
        "display_name": "Victory Liner (Pasay Terminal)",
        "latitude": "14.5386092",
        "longitude": "121.0065615",
        "types": "{point_of_interest,establishment}"
    },
    {
        "ID": 226,
        "display_name": "Victory Bus Liner | Edsa Pasay Terminal",
        "latitude": "14.5392515",
        "longitude": "121.007021999999",
        "types": "{point_of_interest,establishment}"
    },
    {
        "ID": 227,
        "display_name": "Victory Liner Pasay Terminal",
        "latitude": "14.53926",
        "longitude": "121.0068",
        "types": "{bus_stop,transit_station,point_of_interest,establishment}"
    },
    {
        "ID": 228,
        "display_name": "Pasay",
        "latitude": "14.5384425",
        "longitude": "121.006561399999",
        "types": "{bus_stop,transit_station,point_of_interest,establishment}"
    },
    {
        "ID": 229,
        "display_name": "C.U.L. Transport",
        "latitude": "14.5375751000000",
        "longitude": "121.0061855",
        "types": "{point_of_interest,establishment}"
    },
    {
        "ID": 230,
        "display_name": "Mega Bus Lines Corporation",
        "latitude": "14.5380154",
        "longitude": "121.0067506",
        "types": "{point_of_interest,establishment}"
    },
    {
        "ID": 231,
        "display_name": "Edsa Mansions I",
        "latitude": "14.5373333",
        "longitude": "121.0072582",
        "types": "{point_of_interest,establishment}"
    },
    {
        "ID": 232,
        "display_name": "Total (EDSA, Pasay)",
        "latitude": "14.537934",
        "longitude": "121.006275",
        "types": "{gas_station,point_of_interest,establishment}"
    },
    {
        "ID": 233,
        "display_name": "DROP & GO PASAY (VICTORY LINER CARGO)",
        "latitude": "14.5385534999999",
        "longitude": "121.006593",
        "types": "{point_of_interest,establishment}"
    },
    {
        "ID": 234,
        "display_name": "in-land bus terminal",
        "latitude": "14.5380103",
        "longitude": "121.0070068",
        "types": "{travel_agency,point_of_interest,establishment}"
    },
    {
        "ID": 235,
        "display_name": "7-Eleven",
        "latitude": "14.537857",
        "longitude": "121.005926",
        "types": "{convenience_store,store,food,point_of_interest,establishment}"
    },
    {
        "ID": 236,
        "display_name": "Bicol Isarog TSI (Ultrabus)",
        "latitude": "14.5379657999999",
        "longitude": "121.006579",
        "types": "{point_of_interest,establishment}"
    },
    {
        "ID": 237,
        "display_name": "Del Monte Land Transport Bus (DLTB) MAIN",
        "latitude": "14.5379999999999",
        "longitude": "121.006588399999",
        "types": "{point_of_interest,establishment}"
    },
    {
        "ID": 238,
        "display_name": "Shell EDSA San Roque Cabrera",
        "latitude": "14.5385083",
        "longitude": "121.0061816",
        "types": "{gas_station,convenience_store,store,food,point_of_interest,establishment}"
    },
    {
        "ID": 239,
        "display_name": "Gran Prix Hotel & Suites Pasay",
        "latitude": "14.5386099999999",
        "longitude": "121.006656",
        "types": "{hotel,lodging,point_of_interest,establishment}"
    },
    {
        "ID": 240,
        "display_name": "MyTown Auckland",
        "latitude": "14.5560501",
        "longitude": "121.0402487",
        "types": "{lodging,point_of_interest,establishment}"
    },
    {
        "ID": 241,
        "display_name": "Petron",
        "latitude": "14.5583109999999",
        "longitude": "121.0392212",
        "types": "{gas_station,point_of_interest,establishment}"
    },
    {
        "ID": 242,
        "display_name": "Primepower Manpower Services",
        "latitude": "14.557078",
        "longitude": "121.0400265",
        "types": "{point_of_interest,establishment}"
    },
    {
        "ID": 243,
        "display_name": "District Inn",
        "latitude": "14.5562442000000",
        "longitude": "121.0408591",
        "types": "{hotel,lodging,point_of_interest,establishment}"
    },
    {
        "ID": 244,
        "display_name": "Mercury Drug Danlig EDSA",
        "latitude": "14.5584844",
        "longitude": "121.0396699",
        "types": "{drugstore,pharmacy,point_of_interest,health,store,establishment}"
    },
    {
        "ID": 245,
        "display_name": "RedDoorz Plus @ Danlig Street Makati",
        "latitude": "14.5581343",
        "longitude": "121.0397568",
        "types": "{hotel,lodging,point_of_interest,establishment}"
    },
    {
        "ID": 246,
        "display_name": "Dormitels.ph BGC",
        "latitude": "14.5572915999999",
        "longitude": "121.0388151",
        "types": "{lodging,point_of_interest,establishment}"
    },
    {
        "ID": 247,
        "display_name": "Rock Fort Boutique Residences",
        "latitude": "14.5575809",
        "longitude": "121.039594600000",
        "types": "{point_of_interest,establishment}"
    },
    {
        "ID": 248,
        "display_name": "MyTown Sydney",
        "latitude": "14.5561015",
        "longitude": "121.040487",
        "types": "{lodging,point_of_interest,establishment}"
    },
    {
        "ID": 249,
        "display_name": "Palmyra Building",
        "latitude": "14.5577844",
        "longitude": "121.039166299999",
        "types": "{restaurant,point_of_interest,food,establishment}"
    },
    {
        "ID": 250,
        "display_name": "Pinagkaisahan Barangay Hall",
        "latitude": "14.55826",
        "longitude": "121.0409583",
        "types": "{city_hall,point_of_interest,local_government_office,establishment}"
    },
    {
        "ID": 251,
        "display_name": "BDO EDSA - Kalayaan Avenue Branch",
        "latitude": "14.5578129",
        "longitude": "121.0387578",
        "types": "{bank,finance,point_of_interest,establishment}"
    },
    {
        "ID": 252,
        "display_name": "ZEN Rooms Marvelle Studios BGC @ Marvelle Studios",
        "latitude": "14.5566529999999",
        "longitude": "121.04069",
        "types": "{hotel,lodging,point_of_interest,establishment}"
    },
    {
        "ID": 253,
        "display_name": "Oton Building",
        "latitude": "14.5570613",
        "longitude": "121.041030599999",
        "types": "{point_of_interest,establishment}"
    },
    {
        "ID": 254,
        "display_name": "HOMEAID DEPOT, INC.",
        "latitude": "14.556432",
        "longitude": "121.038865",
        "types": "{point_of_interest,establishment}"
    },
    {
        "ID": 255,
        "display_name": "StorageMart Eran/Iran Storage Space Rental Philippines",
        "latitude": "14.5579933",
        "longitude": "121.0395586",
        "types": "{moving_company,storage,point_of_interest,store,establishment}"
    },
    {
        "ID": 256,
        "display_name": "Bites Bistro Makati",
        "latitude": "14.5576951",
        "longitude": "121.0393912",
        "types": "{bar,night_club,restaurant,point_of_interest,food,establishment}"
    },
    {
        "ID": 257,
        "display_name": "HG-III Construction & Development Corp.",
        "latitude": "14.5565095",
        "longitude": "121.0405568",
        "types": "{point_of_interest,establishment}"
    },
    {
        "ID": 258,
        "display_name": "Atarashii Technologies International",
        "latitude": "14.5574805",
        "longitude": "121.0414398",
        "types": "{point_of_interest,establishment}"
    },
    {
        "ID": 259,
        "display_name": "Wonderfoods",
        "latitude": "14.5574920000000",
        "longitude": "121.039976",
        "types": "{restaurant,point_of_interest,food,establishment}"
    },
    {
        "ID": 260,
        "display_name": "SM Megamall Building A",
        "latitude": "14.5859462",
        "longitude": "121.0565345",
        "types": "{shopping_mall,cafe,food,point_of_interest,establishment}"
    },
    {
        "ID": 261,
        "display_name": "Ortigas",
        "latitude": "14.5878494",
        "longitude": "121.0567228",
        "types": "{transit_station,point_of_interest,establishment}"
    },
    {
        "ID": 262,
        "display_name": "Megamall",
        "latitude": "14.5850352",
        "longitude": "121.0563513",
        "types": "{bus_station,transit_station,point_of_interest,establishment}"
    },
    {
        "ID": 263,
        "display_name": "SM Megamall Building A Parking",
        "latitude": "14.5867701",
        "longitude": "121.0577957",
        "types": "{parking,point_of_interest,establishment}"
    },
    {
        "ID": 264,
        "display_name": "Department of Foreign Affairs  NCR East",
        "latitude": "14.5849918",
        "longitude": "121.056352899999",
        "types": "{local_government_office,point_of_interest,establishment}"
    },
    {
        "ID": 265,
        "display_name": "SM Megamall - Building C",
        "latitude": "14.5849918",
        "longitude": "121.056352899999",
        "types": "{shopping_mall,point_of_interest,establishment}"
    },
    {
        "ID": 266,
        "display_name": "Edsa Bus Carousel - Ortigas",
        "latitude": "14.5870872999999",
        "longitude": "121.0564329",
        "types": "{point_of_interest,establishment}"
    },
    {
        "ID": 267,
        "display_name": "Concentrix SM Megamall Recruitment Site",
        "latitude": "14.5848779",
        "longitude": "121.0560976",
        "types": "{point_of_interest,establishment}"
    },
    {
        "ID": 268,
        "display_name": "PAW PARK SM MEGAMALL",
        "latitude": "14.5859462",
        "longitude": "121.0565345",
        "types": "{park,point_of_interest,establishment}"
    },
    {
        "ID": 269,
        "display_name": "SM Megamall Bus Terminal",
        "latitude": "14.585838",
        "longitude": "121.056468",
        "types": "{bus_station,transit_station,point_of_interest,establishment}"
    },
    {
        "ID": 270,
        "display_name": "SM Megamall Basement Parking",
        "latitude": "14.5857477",
        "longitude": "121.0565083",
        "types": "{parking,point_of_interest,establishment}"
    },
    {
        "ID": 271,
        "display_name": "Sambo Kojin - SM Megamall",
        "latitude": "14.5851399",
        "longitude": "121.0570467",
        "types": "{korean_restaurant,japanese_restaurant,restaurant,food,point_of_interest,establishment}"
    },
    {
        "ID": 272,
        "display_name": "Llao Llao",
        "latitude": "14.5859156",
        "longitude": "121.0565951",
        "types": "{ice_cream_shop,store,food,point_of_interest,establishment}"
    },
    {
        "ID": 273,
        "display_name": "Crocs The SM Store Megamall",
        "latitude": "14.5859462",
        "longitude": "121.0565345",
        "types": "{shoe_store,department_store,store,point_of_interest,establishment}"
    },
    {
        "ID": 274,
        "display_name": "CEO Building",
        "latitude": "14.6020735",
        "longitude": "121.0587704",
        "types": "{point_of_interest,establishment}"
    },
    {
        "ID": 275,
        "display_name": "Sta. Clara International Corporation",
        "latitude": "14.5848879",
        "longitude": "121.0554679",
        "types": "{consultant,general_contractor,point_of_interest,establishment}"
    },
    {
        "ID": 276,
        "display_name": "SM Supermarket - SM Megamall Building A",
        "latitude": "14.5862759",
        "longitude": "121.0573817",
        "types": "{supermarket,grocery_store,store,food,point_of_interest,establishment}"
    },
    {
        "ID": 277,
        "display_name": "National Book Store - SM Megamall",
        "latitude": "14.5854971999999",
        "longitude": "121.057333399999",
        "types": "{book_store,store,point_of_interest,establishment}"
    },
    {
        "ID": 278,
        "display_name": "Eagle Cement Corporation",
        "latitude": "14.5867863",
        "longitude": "121.0559996",
        "types": "{point_of_interest,establishment}"
    },
    {
        "ID": 279,
        "display_name": "Miniso",
        "latitude": "14.5861757",
        "longitude": "121.0568771",
        "types": "{home_goods_store,store,point_of_interest,establishment}"
    },
    {
        "ID": 280,
        "display_name": "ATM - Philippine Savings Bank",
        "latitude": "14.58782",
        "longitude": "121.056762",
        "types": "{atm,finance,point_of_interest,establishment}"
    },
    {
        "ID": 281,
        "display_name": "Guadalupe Bridge",
        "latitude": "14.5685264",
        "longitude": "121.046085300000",
        "types": "{premise,point_of_interest,establishment}"
    },
    {
        "ID": 282,
        "display_name": "Gateway Garden Ridge",
        "latitude": "14.5694239",
        "longitude": "121.0467854",
        "types": "{point_of_interest,establishment}"
    },
    {
        "ID": 283,
        "display_name": "Finnex Hotel",
        "latitude": "14.5697347",
        "longitude": "121.0449564",
        "types": "{hotel,lodging,point_of_interest,establishment}"
    },
    {
        "ID": 284,
        "display_name": "Barangay Barangka Ilaya Basketball Court",
        "latitude": "14.5689729",
        "longitude": "121.0455397",
        "types": "{gym,point_of_interest,health,establishment}"
    },
    {
        "ID": 285,
        "display_name": "Transcom Building",
        "latitude": "14.5710518",
        "longitude": "121.0463605",
        "types": "{point_of_interest,establishment}"
    },
    {
        "ID": 286,
        "display_name": "Grateful Cafe",
        "latitude": "14.5704409999999",
        "longitude": "121.0457492",
        "types": "{cafe,point_of_interest,food,establishment}"
    },
    {
        "ID": 287,
        "display_name": "Pinatubo Building",
        "latitude": "14.5716443999999",
        "longitude": "121.0457328",
        "types": "{point_of_interest,establishment}"
    },
    {
        "ID": 288,
        "display_name": "Robinsons Forum",
        "latitude": "14.5712099999999",
        "longitude": "121.047059999999",
        "types": "{bus_stop,transit_station,point_of_interest,establishment}"
    },
    {
        "ID": 289,
        "display_name": "Gatchalian Lechon",
        "latitude": "14.5698907000000",
        "longitude": "121.046061600000",
        "types": "{restaurant,point_of_interest,food,establishment}"
    },
    {
        "ID": 290,
        "display_name": "Primex Tower",
        "latitude": "14.6017294",
        "longitude": "121.0588345",
        "types": "{point_of_interest,establishment}"
    },
    {
        "ID": 291,
        "display_name": "Petron Gas Station",
        "latitude": "14.601309",
        "longitude": "121.058945999999",
        "types": "{gas_station,car_repair,point_of_interest,establishment}"
    },
    {
        "ID": 292,
        "display_name": "EDSA People Power Monument",
        "latitude": "14.5999684",
        "longitude": "121.0601117",
        "types": "{historical_landmark,tourist_attraction,point_of_interest,establishment}"
    },
    {
        "ID": 293,
        "display_name": "BMW Greenhills",
        "latitude": "14.601203",
        "longitude": "121.0583486",
        "types": "{car_dealer,point_of_interest,store,establishment}"
    },
    {
        "ID": 294,
        "display_name": "LANDBANK - EDSA Greenhills",
        "latitude": "14.6006544",
        "longitude": "121.059149",
        "types": "{bank,finance,point_of_interest,establishment}"
    },
    {
        "ID": 295,
        "display_name": "Ferrari Philippines",
        "latitude": "14.6015264",
        "longitude": "121.0583355",
        "types": "{car_dealer,point_of_interest,store,establishment}"
    },
    {
        "ID": 296,
        "display_name": "EcoOil Gas Station - EDSA Mandaluyong",
        "latitude": "14.5994899999999",
        "longitude": "121.059416999999",
        "types": "{gas_station,point_of_interest,establishment}"
    },
    {
        "ID": 297,
        "display_name": "Parc House",
        "latitude": "14.599151",
        "longitude": "121.059303",
        "types": "{point_of_interest,establishment}"
    },
    {
        "ID": 298,
        "display_name": "Cooper's Coffee Haus - EcoOil, EDSA",
        "latitude": "14.5996795",
        "longitude": "121.0592957",
        "types": "{coffee_shop,cafe,point_of_interest,food,store,establishment}"
    },
    {
        "ID": 299,
        "display_name": "J&L Building",
        "latitude": "14.6006964",
        "longitude": "121.0591721",
        "types": "{point_of_interest,establishment}"
    },
    {
        "ID": 300,
        "display_name": "Sanguine Global Staff Resources Corp.",
        "latitude": "14.59915",
        "longitude": "121.059292",
        "types": "{point_of_interest,establishment}"
    },
    {
        "ID": 301,
        "display_name": "Belson House",
        "latitude": "14.600928",
        "longitude": "121.059066",
        "types": "{point_of_interest,establishment}"
    },
    {
        "ID": 302,
        "display_name": "Midway Court",
        "latitude": "14.599851",
        "longitude": "121.059247",
        "types": "{point_of_interest,establishment}"
    },
    {
        "ID": 303,
        "display_name": "Galileo Surgicenter and Vision Institute",
        "latitude": "14.600969",
        "longitude": "121.058995",
        "types": "{point_of_interest,health,establishment}"
    },
    {
        "ID": 304,
        "display_name": "Urban Italia",
        "latitude": "14.5992745000000",
        "longitude": "121.05946",
        "types": "{furniture_store,home_improvement_store,home_goods_store,point_of_interest,store,establishment}"
    },
    {
        "ID": 305,
        "display_name": "SMC Asia Car Distributors Corp. (BMW Philippines)",
        "latitude": "14.6011656",
        "longitude": "121.058528",
        "types": "{market,point_of_interest,establishment}"
    },
    {
        "ID": 306,
        "display_name": "240 GM Building",
        "latitude": "14.5996714",
        "longitude": "121.0593706",
        "types": "{point_of_interest,establishment}"
    },
    {
        "ID": 307,
        "display_name": "Thule EDSA Greenhills - Flagship Concept Store",
        "latitude": "14.6021858999999",
        "longitude": "121.058739",
        "types": "{point_of_interest,store,establishment}"
    },
    {
        "ID": 308,
        "display_name": "Elite Translations Philippines",
        "latitude": "14.5991577",
        "longitude": "121.0593367",
        "types": "{point_of_interest,establishment}"
    },
    {
        "ID": 309,
        "display_name": "Sentinel Residences",
        "latitude": "14.613026",
        "longitude": "121.054364",
        "types": "{hotel,lodging,point_of_interest,establishment}"
    },
    {
        "ID": 310,
        "display_name": "Amaia Skies Cubao Tower 2",
        "latitude": "14.6152232",
        "longitude": "121.0540356",
        "types": "{point_of_interest,establishment}"
    },
    {
        "ID": 311,
        "display_name": "SM Hypermarket Cubao",
        "latitude": "14.6144573",
        "longitude": "121.0543799",
        "types": "{supermarket,grocery_store,store,food,point_of_interest,establishment}"
    },
    {
        "ID": 312,
        "display_name": "EDSA Bus Carousel Main Avenue",
        "latitude": "14.6142139",
        "longitude": "121.053553099999",
        "types": "{point_of_interest,establishment}"
    },
    {
        "ID": 313,
        "display_name": "Main Avenue Bus Stop",
        "latitude": "14.61431",
        "longitude": "121.05368",
        "types": "{bus_station,transit_station,point_of_interest,establishment}"
    },
    {
        "ID": 314,
        "display_name": "Petron",
        "latitude": "14.6139803",
        "longitude": "121.054014499999",
        "types": "{gas_station,point_of_interest,establishment}"
    },
    {
        "ID": 315,
        "display_name": "Public Safety Savings and Loan Association Inc.",
        "latitude": "14.612706",
        "longitude": "121.0544993",
        "types": "{bank,finance,point_of_interest,establishment}"
    },
    {
        "ID": 316,
        "display_name": "Shell",
        "latitude": "14.6135708999999",
        "longitude": "121.054180399999",
        "types": "{gas_station,fast_food_restaurant,sandwich_shop,cafe,convenience_store,meal_takeaway,car_repair,store,restaurant,food,point_of_interest,establishment}"
    },
    {
        "ID": 317,
        "display_name": "Tago Jazz",
        "latitude": "14.6129145",
        "longitude": "121.0522653",
        "types": "{night_club,bar,event_venue,point_of_interest,establishment}"
    },
    {
        "ID": 318,
        "display_name": "EDSA Eats by Max's Group",
        "latitude": "14.6136219",
        "longitude": "121.053325",
        "types": "{restaurant,food,point_of_interest,establishment}"
    },
    {
        "ID": 319,
        "display_name": "Tongas Military Supply and General Merchandise",
        "latitude": "14.6153860999999",
        "longitude": "121.0542549",
        "types": "{store,point_of_interest,establishment}"
    },
    {
        "ID": 320,
        "display_name": "Tropical Poolhouse QC",
        "latitude": "14.6141336999999",
        "longitude": "121.052253999999",
        "types": "{guest_house,lodging,point_of_interest,establishment}"
    },
    {
        "ID": 321,
        "display_name": "Gold Cup Shooting Range",
        "latitude": "14.6143920999999",
        "longitude": "121.0536661",
        "types": "{sports_complex,point_of_interest,establishment}"
    },
    {
        "ID": 322,
        "display_name": "Gabs Food Specialists",
        "latitude": "14.613026",
        "longitude": "121.054364",
        "types": "{point_of_interest,establishment}"
    },
    {
        "ID": 323,
        "display_name": "WSI Distribution Center",
        "latitude": "14.6127023999999",
        "longitude": "121.0545105",
        "types": "{storage,point_of_interest,establishment}"
    },
    {
        "ID": 324,
        "display_name": "Uncle John's",
        "latitude": "14.6155599",
        "longitude": "121.0540955",
        "types": "{convenience_store,store,food,point_of_interest,establishment}"
    },
    {
        "ID": 325,
        "display_name": "Big N4 Logistics Santolan",
        "latitude": "14.6132014",
        "longitude": "121.052559399999",
        "types": "{point_of_interest,establishment}"
    },
    {
        "ID": 326,
        "display_name": "INGCO Tools Cubao",
        "latitude": "14.6141382",
        "longitude": "121.0532286",
        "types": "{hardware_store,store,point_of_interest,establishment}"
    },
    {
        "ID": 327,
        "display_name": "Servimax Technologies Inc.",
        "latitude": "14.6136949",
        "longitude": "121.0518164",
        "types": "{point_of_interest,establishment}"
    },
    {
        "ID": 328,
        "display_name": "Mhyninos Promotion International Incorporated",
        "latitude": "14.6137324999999",
        "longitude": "121.054848100000",
        "types": "{point_of_interest,establishment}"
    },
    {
        "ID": 329,
        "display_name": "Camp Rafael T. Crame - Philippine National Police National Headquarters quezon city",
        "latitude": "14.6070409",
        "longitude": "121.056443",
        "types": "{police,local_government_office,point_of_interest,establishment}"
    },
    {
        "ID": 330,
        "display_name": "Maxicare Primary Care Clinic VV Soliven",
        "latitude": "14.6052263000000",
        "longitude": "121.0573737",
        "types": "{health,point_of_interest,establishment}"
    },
    {
        "ID": 331,
        "display_name": "Annapolis Wilshire Plaza",
        "latitude": "14.6056341",
        "longitude": "121.0555609",
        "types": "{point_of_interest,establishment}"
    },
    {
        "ID": 332,
        "display_name": "Mercedes-Benz Greenhills",
        "latitude": "14.6038542999999",
        "longitude": "121.057786",
        "types": "{car_dealer,store,point_of_interest,establishment}"
    },
    {
        "ID": 333,
        "display_name": "Goldhill Tower",
        "latitude": "14.6059581",
        "longitude": "121.0562795",
        "types": "{point_of_interest,establishment}"
    },
    {
        "ID": 334,
        "display_name": "Maxicare Primary Care Center VV Soliven",
        "latitude": "14.6052376",
        "longitude": "121.0573689",
        "types": "{point_of_interest,establishment}"
    },
    {
        "ID": 335,
        "display_name": "ICH Japanese Restaurant",
        "latitude": "14.605752",
        "longitude": "121.0562289",
        "types": "{japanese_restaurant,restaurant,food,point_of_interest,establishment}"
    },
    {
        "ID": 336,
        "display_name": "Platinum 2000",
        "latitude": "14.6059385",
        "longitude": "121.0560538",
        "types": "{point_of_interest,establishment}"
    },
    {
        "ID": 337,
        "display_name": "Camp Aguinaldo Golf Course",
        "latitude": "14.6055049",
        "longitude": "121.058135899999",
        "types": "{golf_course,athletic_field,sports_complex,point_of_interest,establishment}"
    },
    {
        "ID": 338,
        "display_name": "Harley-Davidson of Manila",
        "latitude": "14.6042398",
        "longitude": "121.0577001",
        "types": "{auto_parts_store,car_repair,store,point_of_interest,establishment}"
    },
    {
        "ID": 339,
        "display_name": "Camp Aguinaldo Gate 3",
        "latitude": "14.6046755",
        "longitude": "121.058100199999",
        "types": "{point_of_interest,establishment}"
    },
    {
        "ID": 340,
        "display_name": "Cruz Arcade",
        "latitude": "14.6070409",
        "longitude": "121.056443",
        "types": "{point_of_interest,establishment}"
    },
    {
        "ID": 341,
        "display_name": "Verano Greenhills by Grand Taipan",
        "latitude": "14.6057754",
        "longitude": "121.0558166",
        "types": "{point_of_interest,establishment}"
    },
    {
        "ID": 342,
        "display_name": "MG Greenhills",
        "latitude": "14.6055507000000",
        "longitude": "121.057067799999",
        "types": "{car_dealer,store,point_of_interest,establishment}"
    },
    {
        "ID": 343,
        "display_name": "Condo 16",
        "latitude": "14.6070409",
        "longitude": "121.056443",
        "types": "{point_of_interest,establishment}"
    },
    {
        "ID": 344,
        "display_name": "Fountain International School - Elementary",
        "latitude": "14.6054901",
        "longitude": "121.0557298",
        "types": "{primary_school,preschool,child_care_agency,school,point_of_interest,establishment}"
    },
    {
        "ID": 345,
        "display_name": "Jaguar Land Rover Philippines",
        "latitude": "14.6042445999999",
        "longitude": "121.0577069",
        "types": "{car_dealer,store,point_of_interest,establishment}"
    },
    {
        "ID": 346,
        "display_name": "V.V. SOLIVEN GROUP OF COMPANIES",
        "latitude": "14.6047178",
        "longitude": "121.0575916",
        "types": "{point_of_interest,establishment}"
    },
    {
        "ID": 347,
        "display_name": "V. V. Soliven Realty Corporation",
        "latitude": "14.6051127",
        "longitude": "121.0574224",
        "types": "{general_contractor,point_of_interest,establishment}"
    },
    {
        "ID": 348,
        "display_name": "Armed Forces of the Philippines (AFP)Lucero Brian",
        "latitude": "14.6070482",
        "longitude": "121.0573411",
        "types": "{point_of_interest,establishment}"
    },
    {
        "ID": 349,
        "display_name": "SM Podium",
        "latitude": "14.5852465",
        "longitude": "121.059334",
        "types": "{shopping_mall,point_of_interest,establishment}"
    },
    {
        "ID": 350,
        "display_name": "SM Megamall - Building B",
        "latitude": "14.583856",
        "longitude": "121.0571326",
        "types": "{shopping_mall,supermarket,grocery_store,store,food,point_of_interest,establishment}"
    },
    {
        "ID": 351,
        "display_name": "BSA Twin Towers Hotel",
        "latitude": "14.5860444",
        "longitude": "121.058107799999",
        "types": "{hotel,lodging,point_of_interest,establishment}"
    },
    {
        "ID": 352,
        "display_name": "The Podium West Tower",
        "latitude": "14.5846692",
        "longitude": "121.0592162",
        "types": "{point_of_interest,establishment}"
    },
    {
        "ID": 353,
        "display_name": "San Miguel Corporation Head Office",
        "latitude": "14.5829358",
        "longitude": "121.0589357",
        "types": "{food,point_of_interest,establishment}"
    },
    {
        "ID": 354,
        "display_name": "St. Francis Square Mall",
        "latitude": "14.5849181",
        "longitude": "121.058097",
        "types": "{shopping_mall,point_of_interest,establishment}"
    },
    {
        "ID": 355,
        "display_name": "SM Cinema Megamall",
        "latitude": "14.5850440000000",
        "longitude": "121.057256",
        "types": "{movie_theater,point_of_interest,establishment}"
    },
    {
        "ID": 356,
        "display_name": "EO Executive Optical - SM Megamall",
        "latitude": "14.5832114",
        "longitude": "121.0572721",
        "types": "{store,point_of_interest,health,establishment}"
    },
    {
        "ID": 357,
        "display_name": "Niu by Vikings, The Podium",
        "latitude": "14.585456",
        "longitude": "121.0595517",
        "types": "{restaurant,food,point_of_interest,establishment}"
    },
    {
        "ID": 358,
        "display_name": "Megatrade Hall",
        "latitude": "14.5831706",
        "longitude": "121.056852",
        "types": "{convention_center,event_venue,point_of_interest,establishment}"
    },
    {
        "ID": 359,
        "display_name": "Mang Inasal",
        "latitude": "14.5845629999999",
        "longitude": "121.056673",
        "types": "{restaurant,fast_food_restaurant,food,point_of_interest,establishment}"
    },
    {
        "ID": 360,
        "display_name": "J.Co Donuts and Coffee - SM Megamall",
        "latitude": "14.5843159",
        "longitude": "121.0574581",
        "types": "{bakery,store,food,point_of_interest,establishment}"
    },
    {
        "ID": 361,
        "display_name": "ASHLY ALEXIS BUILDERS CORP.",
        "latitude": "14.5846692",
        "longitude": "121.0592162",
        "types": "{point_of_interest,establishment}"
    },
    {
        "ID": 362,
        "display_name": "VILLAROSA ARCHITECTS & ENGINEERS",
        "latitude": "14.5860832",
        "longitude": "121.0581645",
        "types": "{point_of_interest,establishment}"
    },
    {
        "ID": 363,
        "display_name": "Paradise Dynasty",
        "latitude": "14.5846315",
        "longitude": "121.0589648",
        "types": "{chinese_restaurant,restaurant,food,point_of_interest,establishment}"
    },
    {
        "ID": 364,
        "display_name": "MC Premiere",
        "latitude": "14.6571315",
        "longitude": "121.0033292",
        "types": "{point_of_interest,establishment}"
    },
    {
        "ID": 365,
        "display_name": "Starbucks SM Podium Reserve",
        "latitude": "14.5846331",
        "longitude": "121.0589346",
        "types": "{coffee_shop,cafe,store,food,point_of_interest,establishment}"
    },
    {
        "ID": 366,
        "display_name": "The Podium, J. Vargas Avenue Entrance",
        "latitude": "14.5846504",
        "longitude": "121.0586124",
        "types": "{shopping_mall,point_of_interest,establishment}"
    },
    {
        "ID": 367,
        "display_name": "Puno and Puno Law Offices",
        "latitude": "14.5847533",
        "longitude": "121.0593043",
        "types": "{consultant,point_of_interest,establishment}"
    },
    {
        "ID": 368,
        "display_name": "Aventus Medical Care, Inc. - Mandaluyong Clinic",
        "latitude": "14.5846501999999",
        "longitude": "121.0581979",
        "types": "{point_of_interest,health,establishment}"
    },
    {
        "ID": 369,
        "display_name": "MCU Hospital - Filemon D. Tanchoco, Sr. Medical Foundation Inc.",
        "latitude": "14.657555",
        "longitude": "120.987140599999",
        "types": "{hospital,point_of_interest,health,establishment}"
    },
    {
        "ID": 370,
        "display_name": "Shakey's Pizza Parlor - Caloocan",
        "latitude": "14.656914",
        "longitude": "120.988057",
        "types": "{pizza_restaurant,fast_food_restaurant,american_restaurant,restaurant,point_of_interest,food,establishment}"
    },
    {
        "ID": 371,
        "display_name": "Edsa Carousel Bus Stop - Monumento",
        "latitude": "14.6572105",
        "longitude": "120.986246600000",
        "types": "{point_of_interest,establishment}"
    },
    {
        "ID": 372,
        "display_name": "24 Chicken MCU-Caloocan",
        "latitude": "14.6566585",
        "longitude": "120.9883493",
        "types": "{korean_restaurant,restaurant,point_of_interest,food,establishment}"
    },
    {
        "ID": 373,
        "display_name": "VantagePoint Dental Laboratory",
        "latitude": "14.6582491",
        "longitude": "120.9880716",
        "types": "{point_of_interest,health,establishment}"
    },
    {
        "ID": 374,
        "display_name": "Jollibee",
        "latitude": "14.6574864000000",
        "longitude": "120.988039099999",
        "types": "{fast_food_restaurant,hamburger_restaurant,meal_takeaway,american_restaurant,restaurant,point_of_interest,food,establishment}"
    },
    {
        "ID": 375,
        "display_name": "MOTODUKTOR",
        "latitude": "14.65596",
        "longitude": "120.988528",
        "types": "{point_of_interest,store,establishment}"
    },
    {
        "ID": 376,
        "display_name": "Hoops Gym Caloocan",
        "latitude": "14.6557248999999",
        "longitude": "120.9886601",
        "types": "{athletic_field,point_of_interest,establishment}"
    },
    {
        "ID": 377,
        "display_name": "MCU Hospital (Monumento)",
        "latitude": "14.657321",
        "longitude": "120.986923999999",
        "types": "{bus_stop,transit_station,point_of_interest,establishment}"
    },
    {
        "ID": 378,
        "display_name": "Ever Supermarket - Morning Breeze",
        "latitude": "14.6577329",
        "longitude": "120.989456099999",
        "types": "{grocery_store,supermarket,point_of_interest,store,food,establishment}"
    },
    {
        "ID": 379,
        "display_name": "MCU FDTMF Hospital Clinical Laboratory",
        "latitude": "14.6575119",
        "longitude": "120.9870702",
        "types": "{doctor,point_of_interest,health,establishment}"
    },
    {
        "ID": 380,
        "display_name": "7-Eleven (0039) MCU 1",
        "latitude": "14.6574813",
        "longitude": "120.9874796",
        "types": "{convenience_store,point_of_interest,store,food,establishment}"
    },
    {
        "ID": 381,
        "display_name": "Landbank - Caloocan",
        "latitude": "14.6575061999999",
        "longitude": "120.989773",
        "types": "{bank,finance,point_of_interest,establishment}"
    },
    {
        "ID": 382,
        "display_name": "Health Screen Laboratory & Diagnostic Center Caloocan Branch",
        "latitude": "14.6577114",
        "longitude": "120.9875071",
        "types": "{point_of_interest,health,establishment}"
    },
    {
        "ID": 383,
        "display_name": "Mang Inasal EDSA CALOOCAN",
        "latitude": "14.6574682999999",
        "longitude": "120.9877762",
        "types": "{restaurant,point_of_interest,food,establishment}"
    },
    {
        "ID": 384,
        "display_name": "Pawfee Bean",
        "latitude": "14.6575201",
        "longitude": "120.9882371",
        "types": "{coffee_shop,cafe,point_of_interest,store,food,establishment}"
    },
    {
        "ID": 385,
        "display_name": "Greenwich",
        "latitude": "14.6574019999999",
        "longitude": "120.9872358",
        "types": "{pizza_restaurant,restaurant,point_of_interest,food,establishment}"
    },
    {
        "ID": 386,
        "display_name": "Peri-Peri Charcoal Chicken & Sauce Bar MCU",
        "latitude": "14.657725",
        "longitude": "120.988762499999",
        "types": "{restaurant,point_of_interest,food,establishment}"
    },
    {
        "ID": 387,
        "display_name": "Lash frozenmeat trading",
        "latitude": "14.6557281",
        "longitude": "120.9878934",
        "types": "{storage,point_of_interest,establishment}"
    },
    {
        "ID": 388,
        "display_name": "Chowking",
        "latitude": "14.6577423",
        "longitude": "120.9875038",
        "types": "{fast_food_restaurant,restaurant,point_of_interest,food,establishment}"
    },
    {
        "ID": 389,
        "display_name": "Balintawak Market",
        "latitude": "14.6569834",
        "longitude": "121.0023397",
        "types": "{market,grocery_store,store,food,point_of_interest,establishment}"
    },
    {
        "ID": 390,
        "display_name": "NLEX/Tarlac (NORTH BOUND) flyover",
        "latitude": "14.6572471",
        "longitude": "121.0002781",
        "types": "{point_of_interest,establishment}"
    },
    {
        "ID": 391,
        "display_name": "NLEX-Skyway Stage 1-3 Traffic Bureau",
        "latitude": "14.6569027",
        "longitude": "120.9999992",
        "types": "{point_of_interest,establishment}"
    },
    {
        "ID": 392,
        "display_name": "Balintawak station",
        "latitude": "14.657352",
        "longitude": "121.0031667",
        "types": "{transit_station,point_of_interest,establishment}"
    },
    {
        "ID": 393,
        "display_name": "NLEX-Balintawak Cloverleaf Interchange",
        "latitude": "14.6574434",
        "longitude": "121.0001913",
        "types": "{local_government_office,point_of_interest,establishment}"
    },
    {
        "ID": 394,
        "display_name": "Camachile Balintawak Terminal",
        "latitude": "14.656754",
        "longitude": "121.000316",
        "types": "{bus_station,transit_station,point_of_interest,establishment}"
    },
    {
        "ID": 395,
        "display_name": "Balintawak Bus Terminal",
        "latitude": "14.6575779999999",
        "longitude": "121.002482",
        "types": "{bus_station,transit_station,point_of_interest,establishment}"
    },
    {
        "ID": 396,
        "display_name": "Super8 Grocery Warehouse Balintawak",
        "latitude": "14.6566383",
        "longitude": "121.0002735",
        "types": "{wholesaler,food,point_of_interest,establishment}"
    },
    {
        "ID": 397,
        "display_name": "Sentrove at Cloverleaf by Alveo Land",
        "latitude": "14.6555145",
        "longitude": "121.0017581",
        "types": "{general_contractor,point_of_interest,establishment}"
    },
    {
        "ID": 398,
        "display_name": "Dantes Gajudo Comp",
        "latitude": "14.6581053999999",
        "longitude": "121.0014821",
        "types": "{lodging,point_of_interest,establishment}"
    },
    {
        "ID": 399,
        "display_name": "barangay unang sigaw brgy. outpost",
        "latitude": "14.6576676",
        "longitude": "121.0019296",
        "types": "{point_of_interest,establishment}"
    },
    {
        "ID": 400,
        "display_name": "North Diversion Road Market Development Corporation",
        "latitude": "14.6571511",
        "longitude": "121.0024983",
        "types": "{market,point_of_interest,establishment}"
    },
    {
        "ID": 401,
        "display_name": "North Luzon Expressway Start",
        "latitude": "14.6575397",
        "longitude": "121.0002952",
        "types": "{point_of_interest,establishment}"
    },
    {
        "ID": 402,
        "display_name": "Nailborhood Spa QC",
        "latitude": "14.6571454",
        "longitude": "121.0034327",
        "types": "{beauty_salon,point_of_interest,establishment}"
    },
    {
        "ID": 403,
        "display_name": "Balintawak",
        "latitude": "14.6571349999999",
        "longitude": "121.00225",
        "types": "{bus_stop,transit_station,point_of_interest,establishment}"
    },
    {
        "ID": 404,
        "display_name": "Apartelle Balintawak-Edsa",
        "latitude": "14.6577112",
        "longitude": "121.0026625",
        "types": "{point_of_interest,establishment}"
    },
    {
        "ID": 405,
        "display_name": "Balintawak / Novaliches Jeepney Terminal",
        "latitude": "14.6565034",
        "longitude": "121.0004266",
        "types": "{point_of_interest,establishment}"
    },
    {
        "ID": 406,
        "display_name": "Lito Gajudo Compound Homestay",
        "latitude": "14.6584609",
        "longitude": "121.0014469",
        "types": "{point_of_interest,establishment}"
    },
    {
        "ID": 407,
        "display_name": "Edsa-Cloverleaf Balintawak Footbridge",
        "latitude": "14.6572733999999",
        "longitude": "121.0023414",
        "types": "{local_government_office,point_of_interest,establishment}"
    },
    {
        "ID": 408,
        "display_name": "Victory Liner Cubao Terminal",
        "latitude": "14.624213",
        "longitude": "121.048559",
        "types": "{point_of_interest,establishment}"
    },
    {
        "ID": 409,
        "display_name": "Cubao Bus Terminal",
        "latitude": "14.6257279",
        "longitude": "121.048331",
        "types": "{parking,point_of_interest,establishment}"
    },
    {
        "ID": 410,
        "display_name": "Baliwag Transit, Inc. - Cubao Terminal",
        "latitude": "14.624584",
        "longitude": "121.049118",
        "types": "{point_of_interest,establishment}"
    },
    {
        "ID": 411,
        "display_name": "HM Transport Incorporated",
        "latitude": "14.6234580999999",
        "longitude": "121.0488498",
        "types": "{point_of_interest,establishment}"
    },
    {
        "ID": 412,
        "display_name": "Pangasinan Solid North Transit, Inc.",
        "latitude": "14.6238734",
        "longitude": "121.0487615",
        "types": "{point_of_interest,establishment}"
    },
    {
        "ID": 413,
        "display_name": "Viron Transit Cubao Terminal",
        "latitude": "14.6251319",
        "longitude": "121.0482784",
        "types": "{point_of_interest,establishment}"
    },
    {
        "ID": 414,
        "display_name": "Genesis Bus and Joybus Cubao",
        "latitude": "14.6256225",
        "longitude": "121.048604",
        "types": "{point_of_interest,establishment}"
    },
    {
        "ID": 415,
        "display_name": "Superlines Transportation Company Incorporated",
        "latitude": "14.6246749",
        "longitude": "121.0484137",
        "types": "{point_of_interest,establishment}"
    },
    {
        "ID": 416,
        "display_name": "Dagupan Bus Terminal",
        "latitude": "14.626096",
        "longitude": "121.047683",
        "types": "{point_of_interest,establishment}"
    },
    {
        "ID": 417,
        "display_name": "ALPS The Bus Inc.",
        "latitude": "14.6253354",
        "longitude": "121.0480298",
        "types": "{point_of_interest,establishment}"
    },
    {
        "ID": 418,
        "display_name": "Coda Lines Terminal",
        "latitude": "14.62347",
        "longitude": "121.0486108",
        "types": "{point_of_interest,establishment}"
    },
    {
        "ID": 419,
        "display_name": "Cisco Bus Co. - Cubao Terminal",
        "latitude": "14.6249100999999",
        "longitude": "121.0492274",
        "types": "{point_of_interest,establishment}"
    },
    {
        "ID": 420,
        "display_name": "Victory Liner Cubao Terminal",
        "latitude": "14.62421",
        "longitude": "121.04856",
        "types": "{bus_stop,transit_station,point_of_interest,establishment}"
    },
    {
        "ID": 421,
        "display_name": "Genesis Transport",
        "latitude": "14.6256480000000",
        "longitude": "121.048738",
        "types": "{point_of_interest,establishment}"
    },
    {
        "ID": 422,
        "display_name": "RedDoorz Plus @ Torre De Manuel Residences 1",
        "latitude": "14.6268991",
        "longitude": "121.0486635",
        "types": "{hotel,lodging,point_of_interest,establishment}"
    },
    {
        "ID": 423,
        "display_name": "EDSA Cubao - Five Star Footbridge",
        "latitude": "14.623749",
        "longitude": "121.0492776",
        "types": "{point_of_interest,local_government_office,establishment}"
    },
    {
        "ID": 424,
        "display_name": "Dagupan Bus Lines",
        "latitude": "14.6261085",
        "longitude": "121.0477388",
        "types": "{point_of_interest,establishment}"
    },
    {
        "ID": 425,
        "display_name": "Lucena Lines Inc.",
        "latitude": "14.626096",
        "longitude": "121.047683",
        "types": "{point_of_interest,establishment}"
    },
    {
        "ID": 426,
        "display_name": "ALPS EDSA Bus Terminal",
        "latitude": "14.6253103999999",
        "longitude": "121.0479557",
        "types": "{point_of_interest,establishment}"
    },
    {
        "ID": 427,
        "display_name": "North Genesis Transport Terminal",
        "latitude": "14.6257432999999",
        "longitude": "121.0479214",
        "types": "{point_of_interest,establishment}"
    },
    {
        "ID": 428,
        "display_name": "Five Star Bus Terminal Cubao",
        "latitude": "14.6235890999999",
        "longitude": "121.0495013",
        "types": "{point_of_interest,establishment}"
    },
    {
        "ID": 429,
        "display_name": "Five Star Bus Co. Cubao",
        "latitude": "14.6236043000000",
        "longitude": "121.0495216",
        "types": "{transit_depot,point_of_interest,establishment}"
    },
    {
        "ID": 430,
        "display_name": "Genesis Bus Terminal Garage",
        "latitude": "14.623314",
        "longitude": "121.048435",
        "types": "{gas_station,point_of_interest,establishment}"
    },
    {
        "ID": 431,
        "display_name": "Raymond Bus Terminal",
        "latitude": "14.6214467",
        "longitude": "121.0490327",
        "types": "{point_of_interest,establishment}"
    },
    {
        "ID": 432,
        "display_name": "OYO 854 Busline Apartelle",
        "latitude": "14.6230182",
        "longitude": "121.048763499999",
        "types": "{hotel,lodging,point_of_interest,establishment}"
    },
    {
        "ID": 433,
        "display_name": "Jollibee",
        "latitude": "14.6211120000000",
        "longitude": "121.0497494",
        "types": "{fast_food_restaurant,hamburger_restaurant,meal_takeaway,american_restaurant,restaurant,food,point_of_interest,establishment}"
    },
    {
        "ID": 434,
        "display_name": "Cubao Elementary School",
        "latitude": "14.6224359",
        "longitude": "121.0510582",
        "types": "{primary_school,school,point_of_interest,establishment}"
    },
    {
        "ID": 435,
        "display_name": "Mercury Drug",
        "latitude": "14.620991",
        "longitude": "121.049747",
        "types": "{pharmacy,health,store,point_of_interest,establishment}"
    },
    {
        "ID": 436,
        "display_name": "Dela Rosa Bus Terminal / Silver Star Bus",
        "latitude": "14.620942",
        "longitude": "121.049248",
        "types": "{travel_agency,point_of_interest,establishment}"
    },
    {
        "ID": 437,
        "display_name": "rbrplus construction supply corp.",
        "latitude": "14.6238617999999",
        "longitude": "121.048788",
        "types": "{point_of_interest,establishment}"
    },
    {
        "ID": 438,
        "display_name": "Silver Star Terminal",
        "latitude": "14.6209424",
        "longitude": "121.0492479",
        "types": "{restaurant,food,point_of_interest,establishment}"
    },
    {
        "ID": 439,
        "display_name": "Awra Bar 7 - Cubao",
        "latitude": "14.6215959",
        "longitude": "121.0496673",
        "types": "{bar,point_of_interest,establishment}"
    },
    {
        "ID": 440,
        "display_name": "Act Theater Building",
        "latitude": "14.6215167",
        "longitude": "121.0506558",
        "types": "{point_of_interest,establishment}"
    },
    {
        "ID": 441,
        "display_name": "Genesis Bus Terminal",
        "latitude": "14.623314",
        "longitude": "121.048435",
        "types": "{point_of_interest,establishment}"
    },
    {
        "ID": 442,
        "display_name": "Centris Station Mall",
        "latitude": "14.6436396000000",
        "longitude": "121.0387789",
        "types": "{shopping_mall,point_of_interest,establishment}"
    },